[
    {
        "type": "1",
        "codes": ["HMSS"],
        "name": "할아버지공장",
        "description": "성수동의 복합 문화 예술 공간",
        "image": "/images/maintenence_near/near_place01.jpg",
        "content": "카페와 갤러리, 모임 공간 등이 마련된 성수동의 복합 문화 예술 공간입니다. 연중 무휴이나, 대관 행사 시 인스타그램을 통해 알려드리고 있어요.",
        "tel": "070-7642-1113",
        "addr": "서울 성동구 성수이로7가길9",
        "time": "매일 11:00~23:00",
        "lat": "37.54112611515423",
        "lng": "127.05490459879607"
    },
    {
        "type": "1",
        "codes": ["HMSS"],
        "name": "IO3(카페 아이오쓰리)",
        "description": "환경을 생각하는 친환경 카페",
        "image": "/images/maintenence_near/near_place02.jpg",
        "content": "다회용 보틀과 리유저블컵에 음료를 담아 드리는 친환경적인 카페 입니다. 커피와 제철 생과일쥬스 전문점으로 보틀이나 개인 텀블러를 가지고 오시면 할인해드려요.",
        "tel": "02-497-1961",
        "addr": "서울 성동구 성수이로20길 60",
        "time": "평일 08:00~19:30, 주말 10:30~19:00",
        "lat": "37.54173066385639",
        "lng": "127.06314642763125"
    },
    {
        "type": "1",
        "codes": ["IRGA"],
        "name": "랑데자뷰 광안리점",
        "description": "제주를 담은 카페",
        "image": "/images/maintenence_near/near_place_1-3.jpg",
        "content": "제주를 담은 홍대, 강남 인기카페 랑데자뷰의 광안리점 입니다. 바다가 보이는 전경에서 진짜 제주를 느껴보세요.",
        "tel": "051-753-0550",
        "addr": "부산 수영구 광안해변로 165 205호",
        "time": "매일 10:00~24:00 ",
        "lat": "35.1495467",
        "lng": "129.1150912"
    },
    {
        "type": "1",
        "codes": ["HMGD", "CHDM"],
        "name": "스타벅스 대치사거리점",
        "description": "환경을 생각하는 친환경 카페",
        "image": "/images/maintenence_near/near_place_1-4.jpg",
        "content": "위생등급 ‘매우우수’ 인증을 받은 매장으로 오피스가에 위치해 상대적으로 조용하며, 매일 아침 7시에 오픈해 저녁 8시까지 영업합니다.",
        "tel": "1522-3232",
        "addr": "서울 강남구 삼성로 402",
        "time": "매일 07:00~20:00",
        "lat": "37.50348438445878",
        "lng": "127.05881669879585"
    },
    {
        "type": "1",
        "codes": ["AJYM"],
        "name": "스타벅스 문래동점",
        "description": "커피 한 잔이 생각난다면",
        "image": "/images/maintenence_near/near_place_1-5.jpg",
        "content": "커피부터, 음료, 다양한 디저트까지 즐겨보세요. ",
        "tel": "1522-3232",
        "addr": "서울시 영등포구 선유로 64",
        "time": "매일 08:00~22:00",
        "lat": "37.51974831298918",
        "lng": "126.88967746996069"
    },
    {
        "type": "1",
        "codes": ["KASC"],
        "name": "폴바셋 서초본점",
        "description": "다시 찾고 싶은 휴식공간",
        "image": "/images/maintenence_near/near_place_1-6.jpg",
        "content": "월드 바리스타 챔피언십 풀 바셋의 장인정신을 기반한 커피 전문점. 좋은 품질의 원두를 사용한 맛있는 커피를 만날 수 있어요.",
        "tel": "02-581-4334",
        "addr": "서울 서초구 사임당로 157 1층",
        "time": "매일 08:00~21:00",
        "lat": "37.49306465558447",
        "lng": "127.02719006996058"
    },
    {
        "type": "1",
        "codes": ["KASC"],
        "name": "데일리3커피",
        "description": "좋은 재료와 합리적인 가격",
        "image": "/images/maintenence_near/near_place_1-7.jpg",
        "content": "건강과 행복을 생각하며 합리적인 가격의 커피와 주스를 제공하는 카페입니다.",
        "tel": "070-8866-7802",
        "addr": "서울 서초구 사임당로 105",
        "time": "토,일 09:00~17:00",
        "lat": "37.49066822359572",
        "lng": "127.02123632763059"
    },
    {
        "type": "1",
        "codes": ["KASC"],
        "name": "스타벅스 서초우성사거리점",
        "description": "빌딩 숲 속의 오아시스",
        "image": "/images/maintenence_near/near_place_1-8.jpg",
        "content": "바쁜 도심 속 잠시나마 향긋한 커피와 여유를 즐기며 힐링하고 싶다면 방문해보세요.",
        "tel": "1522-3232",
        "addr": "서울 서초구 강남대로 343",
        "time": "월~금 07:00~21:00<br>토,일 08:00~19:00",
        "lat": "37.49355869228048",
        "lng": "127.02923279879568"
    },
    {
        "type": "1",
        "codes": ["KASP"],
        "name": "스타벅스 올림픽공원남문점",
        "description": "커피가 선사하는 여유로움",
        "image": "/images/maintenence_near/near_place_1-9.jpg",
        "content": "맑고 쾌적한 공기를 담은 편안한 휴식공간에서의 커피 한잔으로 마음의 평화를 찾아보세요.",
        "tel": "1522-3232",
        "addr": "서울 송파구 위례성대로 102",
        "time": "매일 07:00~21:00",
        "lat": "37.51332562077148",
        "lng": "127.12311099879572"
    },
    {
        "type": "1",
        "codes": ["KASP"],
        "name": "카페로드",
        "description": "직접 로스팅하는 커피 맛집",
        "image": "/images/maintenence_near/near_place_1-10.jpg",
        "content": "올림픽공원과 방이역 중간에 위치하고 있는 카페입니다. 매장에서 원두를 직접 볶아 신선한 커피를 제공하고 있어요.",
        "tel": "010-6239-6289",
        "addr": "서울 송파구 위례성대로16길 14 청나빌딩",
        "time": "월~금 09:00~22:00  /  토,일,공휴일 11:00~20:00",
        "lat": "37.5116315",
        "lng": "127.122255"
    },
    {
        "type": "1",
        "codes": ["KASP"],
        "name": "WICH",
        "description": "장미광장 근처 예쁜 카페",
        "image": "/images/maintenence_near/near_place_1-11.jpg",
        "content": "푸릇푸릇한 식물 인테리어가 생기를 느끼게 해 주는 예쁜 카페랍니다. 분위기 좋은 카페를 찾고 있다면 추천해요.",
        "tel": "010-4082-3890",
        "addr": "서울 송파구 양재대로71길 16-29 1층",
        "time": "매일 10:00~23:00",
        "lat": "37.5118949",
        "lng": "127.1235132"
    },
    {
        "type": "1",
        "codes": ["KASP"],
        "name": "TOUCH 183",
        "description": "올림픽공원뷰 베이커리 카페",
        "image": "/images/maintenence_near/near_place_1-12.jpg",
        "content": "매일 아침 갓구운 유기농 발효빵과 케이크로 맛과 건강까지 책임지는 베이커리 카페에요. 커피 한 잔과 맛있는 빵을 즐겨보세요.",
        "tel": "0507-1409-1500",
        "addr": "서울 송파구 위례성대로 126 보원빌딩 1층",
        "time": "매일 09:00~20:00  /  화요일 휴무",
        "lat": "37.5122427",
        "lng": "127.123518"
    },
    {
        "type": "1",
        "codes": ["KASP"],
        "name": "커핀그루나루 신방이역점",
        "description": "언제든 쉴 수 있는 나무 같은 카페",
        "image": "/images/maintenence_near/near_place_1-13.jpg",
        "content": "높은 품질의 향기로운 커피와 건강에 좋은 와인 한 잔으로 몸과 마음에 쉼터가 되어주는 카페입니다.",
        "tel": "02-422-7778",
        "addr": "서울 송파구 양재대로71길 1-14",
        "time": "월~목 08:00~23:30  /  금~일 09:00~23:30",
        "lat": "37.5096417",
        "lng": "127.1236729"
    },
    {
        "type": "1",
        "codes": ["KASP"],
        "name": "커피빈 방이역4번출구점",
        "description": "부드러운 커피향이 가득",
        "image": "/images/maintenence_near/near_place_1-14.jpg",
        "content": "Simply The Best 철학을 바탕으로 한 커피와 차는 물론, 베이글과 샌드위치 등 다양한 베이커리도 맛볼 수 있어요.",
        "tel": "02-420-0386",
        "addr": "서울 송파구 양재대로71길 1-20",
        "time": "매일 09:00~21:00",
        "lat": "37.5093158",
        "lng": "127.1235975"
    },
    {
        "type": "1",
        "codes": ["KACA"],
        "name": "스타벅스 천안백석점",
        "description": "부드러운 풍미의 에스프레소를 느낄 수 있는",
        "image": "/images/maintenence_near/near_place_1-15.jpg",
        "content": "도로변에 위치하여, 넓은 주자창으로 갖춘 지점이에요. 쾌적한 공간에서 편안함을 느낄 수 있답니다.",
        "tel": "1522-3232",
        "addr": "충남 천안시 서북구 백석로 85-4",
        "time": "월~토 08:00~21:00  /  일 09:00~21:00",
        "lat": "36.8241004",
        "lng": "127.1192937"
    },
    {
        "type": "1",
        "codes": ["KACA"],
        "name": "카페드도쿄 백석점",
        "description": "깔끔한 인테리어의 카페",
        "image": "/images/maintenence_near/near_place_1-16.jpg",
        "content": "여유로운 공간과 은은한 조명의 조용한 분위기가 돋보이는 카페. 수제 디저트와 커피를 함께 즐겨보세요.",
        "tel": "0507-1401-2016",
        "addr": "충남 천안시 서북구 노태산로 4",
        "time": "매일 10:00~22:30  /  월요일 휴무",
        "lat": "36.8251483",
        "lng": "127.1255142"
    },
    {
        "type": "1",
        "codes": ["KACA"],
        "name": "그래비티",
        "description": "신선한 원두로 매일 로스팅",
        "image": "/images/maintenence_near/near_place_1-17.jpg",
        "content": "커피, 에이드, 차, 스무디 등 다양한 종류의 음료를 만날 수 있는 곳이예요.  3층으로 구성되어 층마다 다른 분위기를 느낄 수 있어요.",
        "tel": "0507-1304-3766",
        "addr": "충남 천안시 서북구 한들3로 36-24",
        "time": "매일 09:00 - 23:00",
        "lat": "36.8305273",
        "lng": "127.1228754"
    },
    {
        "type": "1",
        "codes": ["KAUS"],
        "name": "스타벅스 울산중리사거리DT점",
        "description": "도심 속 여유로운 공간",
        "image": "/images/maintenence_near/near_place_1-18.jpg",
        "content": "까다롭고 엄격하게 수확한 원두로 만든 향긋한 커피가 마시고 싶다면 방문해보세요.",
        "tel": "1522-3232",
        "addr": "울산 남구 돋질로 310",
        "time": "매일 07:00~22:30",
        "lat": "35.5438843",
        "lng": "129.3364944"
    },
    {
        "type": "1",
        "codes": ["KAUS"],
        "name": "투썸플레이스 울산중리사거리점",
        "description": "최적의 밸런스를 맞춘 커피",
        "image": "/images/maintenence_near/near_place_1-19.jpg",
        "content": "완성도 높은 디저트와 기분 좋은 여운이 남는 커피를 함께 맛볼 수 있는 카페입니다.",
        "tel": "052-258-0027",
        "addr": "울산 남구 돋질로 322",
        "time": "매일 08:00~24:00",
        "lat": "35.5437208",
        "lng": "129.337987"
    },
    {
        "type": "1",
        "codes": ["KAUS"],
        "name": "배스킨라빈스 울산남구보건소점",
        "description": "골라 먹는 재미가 있는",
        "image": "/images/maintenence_near/near_place_1-20.jpg",
        "content": "32가지 프리미엄 아이스크림과 아이스크림 케이크, 다양한 종류의 디저트 메뉴를 만날 수 있는 곳이에요.",
        "tel": "0507-1338-2064",
        "addr": "울산 남구 돋질로 284",
        "time": "매일 10:00~23:00",
        "lat": "35.544155",
        "lng": "129.3337044"
    },
    {
        "type": "1",
        "codes": ["KABP"],
        "name": "카페 스태리",
        "description": "전문성이 느껴지는 커피",
        "image": "/images/maintenence_near/near_place_1-21.jpg",
        "content": "커피 공장과 아름다운 카페가 공존하는 곳. 인더스트리얼 인테리어로 모던한 분위기가 돋보이는 공간에서 진정한 커피의 맛과 여유를 느낄 수 있어요.",
        "tel": "031-719-1392",
        "addr": "경기 성남시 분당구 대왕판교로351번길 6",
        "time": "매일 11:00~21:00  /  토요일 휴무",
        "lat": "37.3619299",
        "lng": "127.0959986"
    },
    {
        "type": "1",
        "codes": ["KABP"],
        "name": "스타벅스 분당궁내DT점",
        "description": "넓고 아늑한 공간",
        "image": "/images/maintenence_near/near_place_1-22.jpg",
        "content": "대왕판교로에 위치한 분당 유일 드라이브스루 매장입니다. 정성스럽게 내린 커피를 더욱 편하게 즐겨보세요.",
        "tel": "1522-3232",
        "addr": "경기 성남시 분당구 대왕판교로 302",
        "time": "매일 07:00~22:00",
        "lat": "37.3704692",
        "lng": "127.0998176"
    },
    {
        "type": "1",
        "codes": ["AJYM"],
        "name": "카페코지",
        "description": "모던한 분위기의 카페",
        "image": "/images/maintenence_near/near_place_1-23.jpg",
        "content": "양평역 근처의 분위기 있는 카페예요. 특별한 메뉴에 도전해보고 싶다면 달콤한 코코넛의 풍미와 쌉쌀한 커피의 조화가 느껴지는 코코넛 커피 스무디 추천!",
        "tel": "0507-1339-7127",
        "addr": "서울 영등포구 영등포로5길 31 1층",
        "time": "월~금 08:00~22:00 / 토,일 12:00~22:00",
        "lat": "37.5246117",
        "lng": "126.8823371"
    },
    {
        "type": "1",
        "codes": ["AJYM"],
        "name": "이디야커피 양평동2가점",
        "description": "합리적인 가격의 맛있는 커피",
        "image": "/images/maintenence_near/near_place_1-24.jpg",
        "content": "품질 좋고 맛있는 커피를 합리적인 가격으로 만나볼 수 있는 카페. 입맛을 사로잡는 다양한 메뉴를 즐겨보세요.",
        "tel": "02-362-9505",
        "addr": "서울 영등포구 선유서로25길 19",
        "time": "월~금 08:00~23:00 / 토,일 09:00~23:00",
        "lat": "37.5246885",
        "lng": "126.8829217"
    },
    {
        "type": "1",
        "codes": ["KAWJ"],
        "name": "투썸플레이스 원주무실DT점",
        "description": "즐거움을 만날 수 있는 커피와 디저트",
        "image": "/images/maintenence_near/near_place_1-25.jpg",
        "content": "최상의 원두와 최적의 로스팅 포인트, 풍미를 살려내는 에스프레소 추출 능력으로 조화되어 만들어진 커피를 즐겨보세요.",
        "tel": "033-747-2387",
        "addr": "강원 원주시 북원로 2056",
        "time": "매일 07:00~23:00",
        "lat": "37.3296598",
        "lng": "127.9231485"
    },
    {
        "type": "1",
        "codes": ["KAWJ"],
        "name": "무리실카페",
        "description": "주택을 개조한 분위기 있는 카페",
        "image": "/images/maintenence_near/near_place_1-26.jpg",
        "content": "가정집을 개조해 만든 한옥 카페로 시골 외갓집 같은 편안한 느낌이 매력적인 공간이에요. 널찍한 테라스에서 계절에 따라 각각의 정취를 느끼면서 여유로운 시간을 갖고 싶다면 추천해요.",
        "tel": "0507-1318-0260",
        "addr": "강원 원주시 송삼길 203",
        "time": "매일 11:00~21:00 / 월요일 휴무",
        "lat": "37.327083",
        "lng": "127.9181545"
    },
    {
        "type": "1",
        "codes": ["CHUB"],
        "name": "카페 아를",
        "description": "고흐가 사랑한 도시",
        "image": "/images/maintenence_near/near_place_1-27.jpg",
        "content": "빈센트 반 고흐가 사랑한 도시인 ‘아를’.새로운 예술촌 공동체 건설을 바라는 마음으로 프랑스 문화와 음식, 예술, 음악이 공존하는 복합 테마 카페입니다.",
        "tel": "031-837-1717",
        "addr": "경기 의정부시 동일로 204",
        "time": "매일 10:00~24:00 (Break time 15:00~17:00)",
        "lat": "37.7071873",
        "lng": "127.0565956"
    },
    {
        "type": "1",
        "codes": ["CHUB"],
        "name": "파크프리베",
        "description": "분위기 좋은 카페 겸 레스토랑",
        "image": "/images/maintenence_near/near_place_1-28.jpg",
        "content": "휴식의 진정한 의미와 평화로움 나만의 가치를 누릴 수 있는 곳으로 디저트 카페와 이탈리안 레스토랑을 같이 운영하고 있어요.",
        "tel": "031-873-9200",
        "addr": "경기 의정부시 동일로192번길 28-27",
        "time": "매일 10:00~23:00 (카페) / 매일 11:00~22:00 (레스토랑)",
        "lat": "37.7066851",
        "lng": "127.0581394"
    },
    {
        "type": "1",
        "codes": ["HMIC"],
        "name": "글렌휴 레스토랑&amp;베이커리카페",
        "description": "넓은 공간에서 만끽하는 여유",
        "image": "/images/maintenence_near/near_place_1-29.jpg",
        "content": "루프탑까지 3층으로 구성되어 넓고 쾌적한 공간에서 커피와 베이커리를 편안하게 먹을 수 있어요. 펫존이 따로 있어 반려동물과 함께 방문하기도 좋답니다.",
        "tel": "0507-1324-9368",
        "addr": "인천 연수구 청량로109번길 57",
        "time": "매일 10:00~22:00",
        "lat": "37.4157792",
        "lng": "126.650991"
    },
    {
        "type": "1",
        "codes": ["HMIC"],
        "name": "아트리움",
        "description": "도심 속 자연에서 느끼는 갤러리 카페",
        "image": "/images/maintenence_near/near_place_1-30.jpg",
        "content": "단순히 커피를 마시는 공간을 넘어 자연속에서 예술을 느낄 수 있는 갤러리 카페. 1층은 카페, 2층은 대관 및 전시가 이루어지는 갤러리, 3층에는 야외정원과 포토존이 마련되어 있어요.",
        "tel": "0507-1356-8835",
        "addr": "인천 연수구 청량로97번길 56",
        "time": "매일 11:00~22:00",
        "lat": "37.4155285",
        "lng": "126.6512914"
    },
    {
        "type": "1",
        "codes": ["HMIC"],
        "name": "송도초콜릿문화박물관",
        "description": "전시와 체험, 카페까지 초콜릿의 모든 것",
        "image": "/images/maintenence_near/near_place_1-31.jpg",
        "content": "세계사와 문화 발전사에 관한 조형물, 벽화 등을 통해 초콜릿에 대해 좀 더 재미있게 이해할 수 있는 공간이에요. 가족, 연인과 달콤한 초콜릿을 직접 만들며 따뜻한 감성을 느껴보세요.",
        "tel": "010-9206-3934",
        "addr": "인천 연수구 능허대로 227-10",
        "time": "매일 08:30~22:00",
        "lat": "37.4159459",
        "lng": "126.6494144"
    },
    {
        "type": "1",
        "codes": ["AJIS"],
        "name": "스타벅스 일산풍동DT점",
        "description": "풍동의 첫 Drive Thru",
        "image": "/images/maintenence_near/near_place_1-32.jpg",
        "content": "아늑한 분위기 속에서 향긋한 커피와 함께 편안한 시간을 보낼 수 있는 곳입니다.",
        "tel": "1522-3232",
        "addr": "경기 고양시 일산동구 풍동 879",
        "time": "월 06:30~22:00 / 화~목 06:30~21:00 / 금~일 07:30~21:00",
        "lat": "37.6621092",
        "lng": "126.7987626"
    },
    {
        "type": "1",
        "codes": ["IRHD"],
        "name": "스타벅스 부산재송DT점",
        "description": "커피 한 잔의 여유",
        "image": "/images/maintenence_near/near_place_1-33.jpg",
        "content": "아늑한 커피하우스와 스타벅스 디지털 경험 및 드라이브 스루를 함께 즐겨보세요.",
        "tel": "1522-3232",
        "addr": "부산 해운대구 해운대로 189",
        "time": "매일 07:00~23:00",
        "lat": "35.1811824",
        "lng": "129.1218133"
    },

    {
        "type": "2",
        "codes": ["HMSS"],
        "name": "수상한순대국 서울성수점",
        "description": "토종 순대와 얼큰한 국물맛이 일품",
        "image": "/images/maintenence_near/near_place03.jpg",
        "content": "뽀얀 사골육수 안에 순대와 머릿고기, 염통 등 여러 부위별 고기들이 들어가 입맛을 자극하는 순댓국밥 맛집이에요. 한국인의 대표 밥상 순댓국을 만나보세요!",
        "tel": "02-4999-3326",
        "addr": "서울 성동구 연무장19길 18",
        "time": "매일 10:00~23:00",
        "lat": "37.541736914805874",
        "lng": "127.06301326996116"
    },
    {
        "type": "2",
        "codes": ["IRGA"],
        "name": "해운대 31cm 해물칼국수",
        "description": "해물폭탄 칼국수를 만날 수 있는 곳",
        "image": "/images/maintenence_near/near_place_2-2.jpg",
        "content": "신선한 채소와 해산물을 농축해 시원하고 담백하게 만든 육수에 물총조개, 홍합, 가리비 등을 푸짐하게 넣어 만든 해물폭탄 진짜 해물칼국수를 만나보세요.",
        "tel": "051-758-7734",
        "addr": "부산 수영구 광남로 144",
        "time": "매일 11:00~23:00  /  Last Order 22:00",
        "lat": "35.1541177",
        "lng": "129.1155326"
    },
    {
        "type": "2",
        "codes": ["IRGA"],
        "name": "버거앤파스타",
        "description": "광안리 뷰와 즐기는 수제버거",
        "image": "/images/maintenence_near/near_place_2-3.jpg",
        "content": "두툼한 수제버거와 담백한 파스타 그리고 시원한 맥주를 즐길 수 있는 음식점입니다. Thursday party에서 운영하는 수제버거 및 파스트 전문점으로 광안리 해수욕장을 바라보며 음식을 즐길 수 있어요.",
        "tel": "051-751-6631",
        "addr": "부산시 수영구 광안로62번길 39 광안대우아이빌",
        "time": "매일 11:00~01:00",
        "lat": "35.1530351",
        "lng": "129.1156441"
    },
    {
        "type": "2",
        "codes": ["HMGD"],
        "name": "오동도",
        "description": "맛있는 제철 해산물 맛집",
        "image": "/images/maintenence_near/near_place_2-4.jpg",
        "content": "하모(갯장어), 전어 등 제철 해물을 전라도식으로 요리하는 곳입니다. 대표메뉴인 병어회무침뿐 아니라 간장 양념을 올려 쪄낸 서대찜 등 토박이 음식을 맛볼 수 있어요.",
        "tel": "02-557-0039",
        "addr": "서울 강남구 삼성로 71길 7",
        "time": "매일 11:30~22:30",
        "lat": "37.5020951",
        "lng": "127.0561109"
    },
    {
        "type": "2",
        "codes": ["HMGD"],
        "name": "죠샌드위치 대치사거리점",
        "description": "샌드위치 전문점",
        "image": "/images/maintenence_near/near_place_2-5.jpg",
        "content": "종류별 맛있는 샌드위치를 만날 수 있는 곳이에요. 음료와 함께 세트메뉴 주문도 가능하니 간단히 요기가 필요하다면 방문해보세요.",
        "tel": "02-555-6535",
        "addr": "서울 강남구 삼성로 345",
        "time": "매일 09:00~20:00",
        "lat": "37.5022695",
        "lng": "127.056517"
    },
    {
        "type": "2",
        "codes": ["HMGD"],
        "name": "가나안김밥 대치점",
        "description": "통통한 김밥 맛이 일품",
        "image": "/images/maintenence_near/near_place_2-6.jpg",
        "content": "통통한 김밥과 잔치국수가 특히 맛있는 곳. 간단한 분식부터 식사, 계절 메뉴까지 다양한 메뉴 선택이 가능해요.",
        "tel": "02-508-8386",
        "addr": "서울 강남구 역삼로 450",
        "time": "매일 08:00~20:30",
        "lat": "37.5021916",
        "lng": "127.0542051"
    },
    {
        "type": "2",
        "codes": ["CHDM"],
        "name": "명가 교동짬뽕 장한평역점",
        "description": "불맛 나는 짬뽕 맛집",
        "image": "/images/maintenence_near/near_place_2-7.jpg",
        "content": "얼큰하면서도 자꾸 생각나는 불맛의 진한 국물, 장기간 숙성시킨 쫄깃하고 탱탱한 면발을 자랑하는 짬뽕 맛집이에요. ",
        "tel": "02-2247-5003",
        "addr": "서울 동대문구 장한로2길 14",
        "time": "매일 08:00~20:30",
        "lat": "37.5617329",
        "lng": "127.063748"
    },
    {
        "type": "2",
        "codes": ["CHDM"],
        "name": "제주 은희네 해장국 장안점",
        "description": "제주 도민의 인생맛집",
        "image": "/images/maintenence_near/near_place_2-8.jpg",
        "content": "맛과 영양을 두루 갖춘 제주 별미 ‘제주 해장국’을 선보이는 곳이에요. 24시간 끓이는 사골 육수와 제주의 전통적인 조리법으로 만든 해장국의 풍미를 느낄 수 있어요.",
        "tel": "02-3394-8331",
        "addr": "서울 동대문구 장안로2길 48 1층",
        "time": "매일 00:00~24:00",
        "lat": "37.5616596",
        "lng": "127.0654151"
    },
    {
        "type": "2",
        "codes": ["AJYM"],
        "name": "문래동돈까스",
        "description": "소문난 동네 돈까스 맛집",
        "image": "/images/maintenence_near/near_place_2-9.jpg",
        "content": "투툼한 고기가 특징인 돈까스 맛집. 특이하게 히말라야 핑크 솔트가 돈까스와 함께 제공되는데 이 조합이 또 꿀맛이랍니다!",
        "tel": "0507-1390-1007",
        "addr": "서울시 영등포구 선유로 24",
        "time": "평일,토요일 11:00~21:00  (Break time 14:30~17:00) 일요일 휴무",
        "lat": "37.5160242",
        "lng": "126.886389"
    },
    {
        "type": "2",
        "codes": ["AJYM"],
        "name": "등촌샤브칼국수 문래점",
        "description": "쓰리 코스로 든든하게",
        "image": "/images/maintenence_near/near_place_2-10.jpg",
        "content": "야채와 고기, 칼국수에 마무리 볶음밥까지 쓰리 코스로 제공되는 칼국수 맛집이죠. 맛있고 든든하게 배를 채우고 싶다면 추천해요. ",
        "tel": "02-2677-0866",
        "addr": "서울시 영등포구 선유로 27",
        "time": "매일 11:30~21:30  (Break tim 15:30~17:00) 월요일 휴무",
        "lat": "37.5166127",
        "lng": "126.8857264"
    },
    {
        "type": "2",
        "codes": ["AJYM"],
        "name": "능이버섯백숙",
        "description": "남녀노소 누구나 좋아하는",
        "image": "/images/maintenence_near/near_place_2-11.jpg",
        "content": "능이버섯 삼계탕과 토종닭백숙, 오리백숙, 닭도리탕까지 남녀 누구나 좋아하는 음식을 제공합니다. 능이버섯의 시원한 국물맛을 좋아한다면 추천!!",
        "tel": "02-2677-7373",
        "addr": "서울시 영등포구 선유로 32",
        "time": "매일 11:00~21:30  (Break time 16:00~17:00)",
        "lat": "37.5167152",
        "lng": "126.8866627"
    },
    {
        "type": "2",
        "codes": ["AJYM"],
        "name": "영일 분식",
        "description": "50년 이상 된 노포 맛집",
        "image": "/images/maintenence_near/near_place_2-12.jpg",
        "content": "50년 이상의 전통을 자랑하는 노포, 문래동 철공소 골목안의 맛집이에요. 대표 메뉴 ‘칼 비빔국수’는 붉은 양념에 버무려진 칼국수 면 위로 상추와 깻가루가 듬뿍 올려 나옵니다.",
        "tel": "02-2636-9817",
        "addr": "서울시 영등포구 도림로 141가길 34-1",
        "time": "매일 10:00~20:00  /  일요일 휴무",
        "lat": "37.5162778",
        "lng": "126.8874802"
    },
    {
        "type": "2",
        "codes": ["AJYM"],
        "name": "소문난 식당",
        "description": "생물 고등어로 담백한 맛이 일품",
        "image": "/images/maintenence_near/near_place_2-13.jpg",
        "content": "세월의 흐름을 보여주는 노포 식당으로 대표 메뉴인 고등어조림 백반은 묵은지 고등어조림과 고봉밥, 매일 달라지는 반찬과 국이 특징이에요. 생물 고등어를 사용해 비린맛 없이 담백한 것이 매력적이죠.",
        "tel": "02-2635-0570",
        "addr": "서울시 영등포구 도림로 141가길 32-1",
        "time": "평일 11:00~20:00  /  토요일 11:00~16:00 (Break time 16:00~17:00  /  일요일 휴무",
        "lat": "37.5161779",
        "lng": "126.8876887"
    },
    {
        "type": "2",
        "codes": ["AJYM"],
        "name": "송원 마포 돼지갈비",
        "description": "돼지갈비 단일 메뉴가 특징",
        "image": "/images/maintenence_near/near_place_2-14.jpg",
        "content": "돼지갈비 단일 메뉴만 취급하는 맛집이에요. 2번의 숙성 과정을 거친 양념으로 갈빗살을 재우고 숯불에 구워 먹는 양념 갈비로 부드러운 육질이 끝내줘요. 무채 비빔밥과 함께 즐기는 것도 팁!",
        "tel": "02-2678-2978",
        "addr": "서울시 영등포구 도림로 147길 2-1",
        "time": "매일 17:00~22:50  /  일요일 12:30~21:30 넷째주 일요일 휴무",
        "lat": "37.5166527",
        "lng": "126.8870109"
    },
    {
        "type": "2",
        "codes": ["AJYM"],
        "name": "오복 순대국",
        "description": "매장에서 직접 만드는 아바이순대",
        "image": "/images/maintenence_near/near_place_2-15.jpg",
        "content": "하루에 두 번씩 삶아내는 수육과 매일 직접 만드는 아바이순대를 즐길 수 있어요. 순대국의 종류가 다양해 손님들에게 인기가 많답니다.",
        "tel": "0507-1408-4183",
        "addr": "서울시 영등포구 도림로 465",
        "time": "매일 11:00~22:00  /  일요일 11:00~14:00 (Break time 15:00~17:00)",
        "lat": "37.5156875",
        "lng": "126.8893825"
    },
    {
        "type": "2",
        "codes": ["AJYM"],
        "name": "돈꼬불",
        "description": "이색적인 돼지꼬리구이 맛집",
        "image": "/images/maintenence_near/near_place_2-16.jpg",
        "content": "돼지꼬리를 사용한 다양한 메뉴와 돼지특수부위를 직화로 제공하고 있어요. 직접 만드는 편육과 순대 또한 맛볼 수 있으며, 고소하고 쫄깃한 식감이 일품입니다. ",
        "tel": "0507-1368-0311",
        "addr": "서울시 영등포구 도림로 128길 21",
        "time": "평일 11:30~23:00  /  주말, 공휴일 15:00~23:00 (Break time 14:00~17:00)",
        "lat": "37.5153639",
        "lng": "126.892446"
    },
    {
        "type": "2",
        "codes": ["KASC"],
        "name": "장꼬방묵은김치찌개전문",
        "description": "깊이가 느껴지는 묵은 김치찌개",
        "image": "/images/maintenence_near/near_place_2-17.jpg",
        "content": "묵은지로 끓인 김치찌개의 감칠맛이 일품인 곳! 짜지 않고 적당히 매우면서도 달달한 찌개와 숯불에 구운 장꼬방 구이를 함께 즐겨보세요.",
        "tel": "02-522-0035",
        "addr": "서울 서초구 효령로 364 장꼬방",
        "time": "매일 09:30~23:00",
        "lat": "37.4925868",
        "lng": "127.0193379"
    },
    {
        "type": "2",
        "codes": ["KASC"],
        "name": "김영모과자점 서초동성당점",
        "description": "대를 이어가는 명장 베이커리",
        "image": "/images/maintenence_near/near_place_2-18.jpg",
        "content": "대한민국 제과 명장이자 기능 한국인 제과 부분 1호인 김영모 과자점의 본점이에요. 까다롭게 선별된 원재료만을 사용하여 웰빙 제과를 만들고 있습니다.",
        "tel": "02-3473-5484",
        "addr": "서울 서초구 서초대로64길 41-4",
        "time": "매일 08:00 - 22:30",
        "lat": "37.4937594",
        "lng": "127.019189"
    },
    {
        "type": "2",
        "codes": ["KASC"],
        "name": "파리크라상 서초래미안점",
        "description": "고품격 베이커리",
        "image": "/images/maintenence_near/near_place_2-19.jpg",
        "content": "좋은 재료와 정성을 가득 담은 빵과 케이크, 샌드위치 등 프랑스 정통의 유럽풍 베이커리를 만날 수 있어요.",
        "tel": "02-521-5838",
        "addr": "서울 서초구 사임당로 157",
        "time": "평일 07:00 - 23:00",
        "lat": "37.4929497",
        "lng": "127.0250121"
    },
    {
        "type": "2",
        "codes": ["KASP"],
        "name": "코벤트가든 올림픽공원점",
        "description": "가성비 좋은 파스타 맛집",
        "image": "/images/maintenence_near/near_place_2-20.jpg",
        "content": "맛있는 파스타와 피자를 합리적인 가격으로 즐길 수 있어 올림픽공원 일대 맛집으로 꾸준히 사랑받고 있는 곳이에요.",
        "tel": "0507-1401-5565",
        "addr": "서울 송파구 위례성대로 128 1층",
        "time": "매일 11:00 - 21:30 (Break time 월~금 15:00~17:00 주말 15:00~16:30)  /  명절 당일 휴무",
        "lat": "37.5121895",
        "lng": "127.1236251"
    },
    {
        "type": "2",
        "codes": ["KASP"],
        "name": "홍종흔 베이커리",
        "description": "명란바게트로 유명한",
        "image": "/images/maintenence_near/near_place_2-21.jpg",
        "content": "다양한 종류의 베이커리로 눈과 입을 사로잡는 곳이에요. 특히 겉은 바삭하고 속은 촉촉한 명란바게트는 꼭 먹어봐야 할 베스트 빵!",
        "tel": "02-2135-8955",
        "addr": "서울 송파구 방이동 186-9",
        "time": "매일 09:00~23:00",
        "lat": "37.5104887",
        "lng": "127.1236766"
    },
    {
        "type": "2",
        "codes": ["KACA"],
        "name": "맥도날드 천안두정점",
        "description": "24시간 언제든",
        "image": "/images/maintenence_near/near_place_2-22.jpg",
        "content": "24시간 오픈 매장으로 통유리의 넓고 깔끔한 공간에서 맛있는 버거를 먹고 싶다면 추천해요.",
        "tel": "070-7017-0585",
        "addr": "충남 천안시 서북구 동서대로 49",
        "time": "매일 00:00 - 24:00",
        "lat": "36.82559",
        "lng": "127.1265068"
    },
    {
        "type": "2",
        "codes": ["KAUS"],
        "name": "맥도날드 울산삼산DT점",
        "description": "가볍게 즐기는 맛있는 버거",
        "image": "/images/maintenence_near/near_place_2-23.jpg",
        "content": "갓 만들어 맛있는 버거와 부담 없이 즐기는 사이드 메뉴까지, 간단하게 한끼를 해결할 수 있어요.",
        "tel": "070-7017-1459",
        "addr": "울산 남구 화합로 201",
        "time": "매일 00:00 - 24:00",
        "lat": "35.5427519",
        "lng": "129.3369299"
    },
    {
        "type": "2",
        "codes": ["AJAY"],
        "name": "SUREST251",
        "description": "분위기 있는 다이닝 카페",
        "image": "/images/maintenence_near/near_place_2-24.jpg",
        "content": "다양한 이탈리아 요리를 합리적인 가격에 즐길 수 있는 다이닝 카페입니다. 보태니컬 분위기에서 맛보는 페스츄리 피자는 이곳만의 시그니처 메뉴!",
        "tel": "0507-1356-4882",
        "addr": "경기 안양시 동안구 관악대로 251 1층",
        "time": "매일 10:00~22:00",
        "lat": "37.4022778",
        "lng": "126.9485848"
    },
    {
        "type": "2",
        "codes": ["AJAY"],
        "name": "더담부대찌개",
        "description": "푸짐한 햄과 깊은 국물",
        "image": "/images/maintenence_near/near_place_2-25.jpg",
        "content": "고급 프리미엄 햄과 소시지가 가득 들어간 고품격의 부대찌개를 자랑하는 맛집. 어른부터 아이까지 모두가 좋아하는 다양한 부대찌개와 술안주로 좋은 부대볶음도 제공하고 있어요.",
        "tel": "031-384-1991",
        "addr": "경기 안양시 동안구 평촌대로 362",
        "time": "매일 10:00~22:00 (Break Time 15:00~16:30)",
        "lat": "37.4029988",
        "lng": "126.9477898"
    },
    {
        "type": "2",
        "codes": ["AJAY"],
        "name": "장강",
        "description": "수타 면발이 일품",
        "image": "/images/maintenence_near/near_place_2-26.jpg",
        "content": "50년 경력을 자랑하는 수타면으로 유명한 중식당. 자장면과 더불어 깔끔하고 개운한 냉짬뽕, 쫄깃한 찹쌀 탕수육이 인기 메뉴랍니다.",
        "tel": "031-386-6295",
        "addr": "경기 안양시 동안구 평촌대로 376 (2층)",
        "time": "매일 11:00~21:00",
        "lat": "37.4042426",
        "lng": "126.9477239"
    },
    {
        "type": "2",
        "codes": ["AJAY"],
        "name": "송도갈비 천지연",
        "description": "질과 맛이 남다른 갈비",
        "image": "/images/maintenence_near/near_place_2-27.jpg",
        "content": "최상급 갈비본살을 엄선하여 풍부한 육즙과 탄력 있는 식감이 느껴지는 돼지갈비를 맛볼 수 있는 곳이에요.",
        "tel": "0507-1413-5502",
        "addr": "경기 안양시 동안구 관악대로 263",
        "time": "매일 11:30~22:00",
        "lat": "37.4024874",
        "lng": "126.9496606"
    },
    {
        "type": "2",
        "codes": ["AJYM"],
        "name": "동춘",
        "description": "가성비 좋은 짬뽕 맛집",
        "image": "/images/maintenence_near/near_place_2-28.jpg",
        "content": "저렴한 가격과 푸짐한 양으로 인기있는 중국집입니다. 깔끔하고 진한 짬뽕 국물이 일품이에요.",
        "tel": "02-2632-2664",
        "addr": "서울 영등포구 영등포로 27",
        "time": "매일 11:00 ~ 21:00",
        "lat": "37.5232428",
        "lng": "126.8835412"
    },
    {
        "type": "2",
        "codes": ["AJYM"],
        "name": "개성손만두요리전문점 양평점",
        "description": "개운하고 깔끔한 만두전골",
        "image": "/images/maintenence_near/near_place_2-29.jpg",
        "content": "속이 꽉 찬 손만두와 따뜻한 국물의 만두전골이 유명한 맛집. 자극적이지 않고 담백한 만두를 맛볼 수 있는 곳입니다.",
        "tel": "02-2679-7333",
        "addr": "서울 영등포구 영등포로 66",
        "time": "매일 11:00~22:00",
        "lat": "37.5219799",
        "lng": "126.8863674"
    },
    {
        "type": "2",
        "codes": ["KAWJ"],
        "name": "치악산한우타운",
        "description": "품질 좋은 치악산 한우",
        "image": "/images/maintenence_near/near_place_2-30.jpg",
        "content": "원주 축산업 협동조합의 한우 브랜드인 치악산 한우를 전문으로 하는 정육식당입니다. 마블링 좋은 고기를 보다 합리적인 가격으로 맛볼 수 있어요.",
        "tel": "033-766-8686",
        "addr": "강원 원주시 무실밤골길 29-4",
        "time": "매일 10:00~22:00",
        "lat": "37.3286534",
        "lng": "127.92188"
    },
    {
        "type": "2",
        "codes": ["CHUB"],
        "name": "수락산 숯불 닭갈비",
        "description": "숯불에 구워 더 맛있는 닭갈비",
        "image": "/images/maintenence_near/near_place_2-31.jpg",
        "content": "국내산 참숯만을 사용해 구운 닭갈비를 맛볼 수 있는 곳. 담백한 소금구이, 매콤달콤한 양념구이에 향긋한 더덕구이를 함께 즐기는 것이 팁!",
        "tel": "031-875-3455",
        "addr": "경기 의정부시 동일로 122",
        "time": "매일 11:00~22:00",
        "lat": "37.6997982",
        "lng": "127.0529023"
    },
    {
        "type": "2",
        "codes": ["CHUB"],
        "name": "장암 우리나라",
        "description": "얼큰한 소고기국밥",
        "image": "/images/maintenence_near/near_place_2-32.jpg",
        "content": "칼칼함이 느껴지는 소고기국밥으로 유명한 맛집이에요. 넓은 매장에 24시간 운영하는 곳이니 얼큰한 국물에 든든한 식사를 하고 싶다면 방문해보세요.",
        "tel": "031-876-6999",
        "addr": "경기 의정부시 동일로128번길 11",
        "time": "매일 0:00 ~ 20:00 24시간",
        "lat": "37.7003533",
        "lng": "127.0546224"
    },
    {
        "type": "2",
        "codes": ["HMIC"],
        "name": "장독집",
        "description": "세월을 품어 가치 있는 맛",
        "image": "/images/maintenence_near/near_place_2-33.jpg",
        "content": "시그니처 메뉴인 고기와 우거지가 들어있는 뜨끈한 장국밥과, 얇은 고기에 야채를 싸먹는 장육쌈이 일품인 맛집이에요.",
        "tel": "02-950-3900",
        "addr": "인천 연수구 앵고개로83번길 45",
        "time": "매일 09:00~21:00",
        "lat": "37.4140019",
        "lng": "126.6513209"
    },
    {
        "type": "2",
        "codes": ["HMIC"],
        "name": "돈까스클럽 송도점",
        "description": "유러피안 패밀리 레스토랑",
        "image": "/images/maintenence_near/near_place_2-34.jpg",
        "content": "돈까스와 화덕피자, 스파게티 등 유러피안 스타일의 패밀리 레스토랑. 고급 카페테리아 분위기의 편안한 공간에서 다양한 메뉴를 즐길 수 있어요.",
        "tel": "032-832-4100",
        "addr": "인천 연수구 능허대로 275",
        "time": "매일 11:30~10:00 월요일 휴무",
        "lat": "37.4123904",
        "lng": "126.6521473"
    },
    {
        "type": "2",
        "codes": ["HMIC"],
        "name": "송도오리",
        "description": "담백한 오리로 몸보신",
        "image": "/images/maintenence_near/near_place_2-35.jpg",
        "content": "오리 요리 전문점으로 깔끔한 반찬과 유황 훈제오리, 장작구이 등 푸짐한 오리 요리를 맛볼 수 있는 곳. 몸에 좋은 오리로 몸보신이 필요하다면 방문해보세요.",
        "tel": "032-851-9997",
        "addr": "인천 연수구 능허대로 243",
        "time": "매일 11:30~22:00",
        "lat": "37.4149859",
        "lng": "126.6503781"
    },
    {
        "type": "2",
        "codes": ["AJIS"],
        "name": "맥도날드 고양풍동DT",
        "description": "언제나 맛있는 버거",
        "image": "/images/maintenence_near/near_place_2-36.jpg",
        "content": "24시간 운영하고 있는 드라이브 스루 매장이에요. 바로 조리해 더욱 맛있는 다양한 버거를 즐겨보세요.",
        "tel": "070-7209-0550",
        "addr": "경기 고양시 일산동구 백마로 497",
        "time": "매일 00:00~24:00",
        "lat": "37.6629504",
        "lng": "126.8012301"
    },
    {
        "type": "2",
        "codes": ["IRHD"],
        "name": "식당3선",
        "description": "좋은 재료에서 출발한 앙념갈비",
        "image": "/images/maintenence_near/near_place_2-37.jpg",
        "content": "전통적인 맛의 양념갈비 맛집. 옛 온천장 갈비골목에서 맛보던 양념 소갈비살, 초량 돼지갈비의 두툼한 갈빗대의 돼지갈비, 사골 육수로 맛을 낸 쫄깃한 밀면 등 제대로 된 요리를 맛볼 수 있어요.",
        "tel": "051-781-0808",
        "addr": "부산 해운대구 해운대로 230",
        "time": "매일 10:30~23:00",
        "lat": "35.1782089",
        "lng": "129.1240847"
    },

    {
        "type": "3",
        "codes": ["HMSS"],
        "name": "MONOMART(모노마트 성수점)",
        "description": "다양한 월드푸드를 만날 수 있는",
        "image": "/images/maintenence_near/near_place04.jpg",
        "content": "요리의 핵심이 되는 소스와 면류, 튀김류부터 간편 조리식, 육가공품, 유제품, 주류 등 다양한 월드 푸드를 만나보세요.",
        "tel": "02-3409-9464",
        "addr": "서울 성동구 성수이로20길 49 1층",
        "time": "평일 10:00~20:00",
        "lat": "37.54225760864957",
        "lng": "127.06205238732315"
    },
    {
        "type": "3",
        "codes": ["IRGA"],
        "name": "티앤북스 광안점",
        "description": "오션뷰의 코믹스 카페",
        "image": "/images/maintenence_near/near_place_3-2.jpg",
        "content": "시원한 오션뷰를 보며 편안하게 누워서 커피와 독서를 즐길 수 있는 코믹스 카페 입니다. 연인끼리 친구끼리 가족끼리, 모두 다 함께 즐길 수 있는 새로운 문화공간을 만들어가요.",
        "tel": "051-758-0105",
        "addr": "부산시 수영구 민락해변로 29 8층",
        "time": "평일 10:00~23:00 (월~목)  /  주말 10:00~00:00 (금~토)",
        "lat": "35.1553902",
        "lng": "129.1151713"
    },
    {
        "type": "3",
        "codes": ["IRGA"],
        "name": "분홍이네",
        "description": "예쁜 소품들이 가득한 곳",
        "image": "/images/maintenence_near/near_place_3-3.jpg",
        "content": "아기자기 예쁜 소품들이 가득한 소품샵이에요. 다양한 소품들은 물론 곳곳에 포토스팟이 있어 광안리 여행객들의 필수 코스로 꼽히기도해요. 광안리에 방문하신다면 꼭 들려보세요!",
        "tel": "0507-1366-0523",
        "addr": "부산시 수영구 광안로45번길 2 지하1층",
        "time": "화~토요일 12:00~20:00  /  일요일12:00~18:00 ",
        "lat": "35.1553902",
        "lng": "129.1151713"
    },
    {
        "type": "3",
        "codes": ["HMGD"],
        "name": "현대백화점 무역센터점",
        "description": "쇼핑부터 식당가, 문화센터까지",
        "image": "/images/maintenence_near/near_place_3-4.jpg",
        "content": "지하 1층 식품관부터 11층 문화센터까지 이용할 수 있어요. 각종 패션 및 화장품 매장은 물론 8층~10층까지는 면세점도 마련되어 있습니다. ",
        "tel": "02-552-2233",
        "addr": "서울 강남구 테헤란로 517",
        "time": "평일 10:30~20:00  /  금~일 10:30~20:30",
        "lat": "37.5086196",
        "lng": "127.0575921"
    },
    {
        "type": "3",
        "codes": ["HMGD"],
        "name": "코엑스",
        "description": "경제・무역・문화・관광 랜드마크",
        "image": "/images/maintenence_near/near_place_3-5.jpg",
        "content": "전시 및 행사는 물론 쇼핑과 문화생활까지 가능한 강남의 랜드마크에요. 최고의 전시 문화와 관광의 명소로 유명한 코엑스에서 멋진 시간을 가져보세요.",
        "tel": "02-6000-0114",
        "addr": "서울 강남구 영동대로 513",
        "time": "매일 10:00~18:00 (행사 종료시간 상이)",
        "lat": "37.5101977",
        "lng": "127.0563937"
    },
    {
        "type": "3",
        "codes": ["CHDM"],
        "name": "문스크린골프장",
        "description": "실내에서 즐기는 골프 게임",
        "image": "/images/maintenence_near/near_place_3-6.jpg",
        "content": "필드에 나가지 않고도 쉽게 골프를 즐길 수 있는 실내골프장이에요. 넓은 실내에서 게임을 즐겨보세요.",
        "tel": "070-2215-0706",
        "addr": "서울 동대문구 장한로 6",
        "time": "매일 10:00~24:00",
        "lat": "37.561727",
        "lng": "127.0649508"
    },
    {
        "type": "3",
        "codes": ["CHDM"],
        "name": "명가마사지",
        "description": "맞춤형 마사지로 피로 회복!",
        "image": "/images/maintenence_near/near_place_3-7.jpg",
        "content": "일상생활에 지친 몸과 마음의 편안한 휴식을 위한 마사지샵이에요. 커플마사지, 스포츠마사지, 아로마마사지 등 원하는 마사지를 선택해 이용해보세요. ",
        "tel": "02-3394-6971",
        "addr": "서울 동대문구 장한로 20",
        "time": "매일 00:00~24:00",
        "lat": "37.5629618",
        "lng": "127.0654262"
    },
    {
        "type": "3",
        "codes": ["AJYM"],
        "name": "타임스퀘어",
        "description": "국내 최대 복합 쇼핑몰",
        "image": "/images/maintenence_near/near_place_3-8.jpg",
        "content": "새로운 도시형 엔터테인먼트 문화공간으로 국내 최대 규모의 복합 쇼핑몰이에요. 패션, 문화, 외식, 엔터테인먼트 등 다양한 고객의 니즈와 라이프스타일을 충족시키는 공간입니다.",
        "tel": "02-2638-2000",
        "addr": "서울 영등포구 영중로 15 ",
        "time": "매일 10:30~22:00",
        "lat": "37.5170112",
        "lng": "126.9019532"
    },
    {
        "type": "3",
        "codes": ["KASP"],
        "name": "한성백제박물관",
        "description": "2천년 역사도시 서울이 담긴",
        "image": "/images/maintenence_near/near_place_3-9.jpg",
        "content": "서울의 역사정체성을 상징하고 고대 동아시아 공유문화의 핵심가치를 전시하는 박물관. 백제왕도역사와 관련 깊은 유적물을 관리하며 역사를 쉽고 재미있게 이해할 수 있도록 도와줍니다.",
        "tel": "",
        "addr": "서울 송파구 위례성대로 71 한성백제박물관",
        "time": "월~금 09:00~19:00  /  토,일,공휴일 09:00~18:00  /  월요일 휴무",
        "lat": "37.5154232",
        "lng": "127.1184482"
    },
    {
        "type": "3",
        "codes": ["KASP"],
        "name": "소마미술관",
        "description": "자연과 소통하는 도심 속 예술 쉼터",
        "image": "/images/maintenence_near/near_place_3-10.jpg",
        "content": "세계의 조각 작품들과 조경이 조화를 이룬 조각공원 안에 자리잡은 미술관으로 서울 올림픽의 성과를 예술로 승화하는 기념 공간이자 휴식 공간입니다.",
        "tel": "02-425-1077",
        "addr": "서울 송파구 위례성대로 51",
        "time": "매일 10:00~18:00 (입장마감 17:00)  /  월요일 휴무",
        "lat": "37.512288",
        "lng": "127.1175171"
    },
    {
        "type": "3",
        "codes": ["KAUS"],
        "name": "울산업스퀘어",
        "description": "최신 트렌드와 문화의 시작",
        "image": "/images/maintenence_near/near_place_3-11.jpg",
        "content": "글로벌 감각과 최신 트렌드로 가득 찬 복합쇼핑몰. 지하 6층~지상 10층에 이르는 공간에서 새로운 라이프 스타일을 만나보세요.",
        "tel": "052-990-5000",
        "addr": "울산 남구 화합로 185",
        "time": "매일 10:30~22:00",
        "lat": "35.5364987",
        "lng": "129.3369571"
    },
    {
        "type": "3",
        "codes": ["HMSW"],
        "name": "앨리웨이 광교",
        "description": "골목마다 즐거운 경험",
        "image": "/images/maintenence_near/near_place_3-12.jpg",
        "content": "다양한 예술작품과 다채로운 체험으로 사랑받는 공간입니다. 골목골목 개성 있는 상점과 거리에서 새로운 취향을 발견해보세요.",
        "tel": "031-215-2691",
        "addr": "경기 수원시 광교호수공원로 80",
        "time": "매일 11:00~21:00",
        "lat": "37.2744656",
        "lng": "127.0603439"
    },
    {
        "type": "3",
        "codes": ["AJYM"],
        "name": "안양천제방벚꽃길",
        "description": "아름다운 벚꽃 나무",
        "image": "/images/maintenence_near/near_place_3-13.jpg",
        "content": "봄에 벚꽃 명소로 유명한 곳으로 안양천을 따라 약 1km의 산책 코스를 돌며 힐링 타임을 가져보세요.",
        "tel": "",
        "addr": "서울 영등포구 양평동",
        "time": "",
        "lat": "37.533005",
        "lng": "126.8854149"
    },
    {
        "type": "3",
        "codes": ["AJYM"],
        "name": "골프존파크 양평점",
        "description": "최신식 시스템으로 더욱 즐거운 게임",
        "image": "/images/maintenence_near/near_place_3-14.jpg",
        "content": "듀얼플레이트와 레이저 프로젝터의 선명한 화질로 더 생동감 넘치는 게임을 즐길 수 있는 곳. 다양하고 재미있는 이벤트와 셀프바 운영도 함께 하고 있어요.",
        "tel": "0507-1355-1872",
        "addr": "서울 영등포구 영등포로 21",
        "time": "월~금 10:00~01:00 / 토,일 09:00~01:00",
        "lat": "37.52348",
        "lng": "126.8818618"
    },
    {
        "type": "3",
        "codes": ["AJYM"],
        "name": "현대백화점 목동점",
        "description": "쇼핑과 휴식을 한 곳에서",
        "image": "/images/maintenence_near/near_place_3-15.jpg",
        "content": "지하 3층 스포츠 메가샵부터 7층 하늘정원까지, 각종 패션 및 리빙 매장과 식당가, 편의시설을 이용할 수 있어요.",
        "tel": "02-2163-2233",
        "addr": "서울 양천구 목동동로 257",
        "time": "매일 10:30~20:00 (연장영업시 10:30~20:30)",
        "lat": "37.5268295",
        "lng": "126.8727895"
    },
    {
        "type": "3",
        "codes": ["KAWJ"],
        "name": "원주소금산출렁다리",
        "description": "원주의 대표관광지",
        "image": "/images/maintenence_near/near_place_3-16.jpg",
        "content": "국내 최장, 최고 규모의 산악보도교. 공중을 걸어가며 느끼는 아찔함과 섬강의 빼어난 풍광을 감상해보세요.",
        "tel": "033-731-4088",
        "addr": "강원 원주시 지정면 소금산길 14",
        "time": "매일 09:00~18:00(하절기) / 09:00~17:00(동절기)",
        "lat": "37.3646203",
        "lng": "127.8314459"
    },
    {
        "type": "3",
        "codes": ["KAWJ"],
        "name": "오크밸리 스키빌리지 수영장",
        "description": "자연과 하나되는 진정한 휴식",
        "image": "/images/maintenence_near/near_place_3-17.jpg",
        "content": "강원도라는 천혜의 자연 조건 속에서 유럽을 그대로 옮겨 놓은 듯한 이국적 아름다움을 자랑하는 곳이에요. 자연 속에서 고품격 힐링 휴양을 경험할 수 있답니다.",
        "tel": "033-769-7535",
        "addr": "강원 원주시 지정면 판대리 577-4",
        "time": "",
        "lat": "37.4088498",
        "lng": "127.8057927"
    },
    {
        "type": "3",
        "codes": ["KAWJ"],
        "name": "소나타오브라이트",
        "description": "화려한 볼거리가 가득한 산책로",
        "image": "/images/maintenence_near/near_place_3-18.jpg",
        "content": "오크밸리의 명소로 밤이 되면 아름다운 조명과 함께 신비한 이야기가 있는 환상적인 세계가 펼쳐집니다. 아름다운 빛의 연주가 낭만으로 이끄는 길을 걸어보세요.",
        "tel": "0507-1310-3981",
        "addr": "강원 원주시 지정면 월송리 1061-24",
        "time": "매일 19:00~22:00",
        "lat": "37.4357765",
        "lng": "127.8185791"
    },
    {
        "type": "3",
        "codes": ["KAWJ"],
        "name": "백운산 자연휴양림",
        "description": "아름다운 원경",
        "image": "/images/maintenence_near/near_place_3-19.jpg",
        "content": "백운산 자락에 위치하고 있는 자연휴양림으로, 원주 시내에서 15분 거리에 위치해 접근성이 좋아요. 산림문화, 교육 프로그램이 특화되어 가족 단위로 가기좋은 휴양 공간이에요.",
        "tel": "033-766-1063",
        "addr": "강원 원주시 판부면 서곡리 산166",
        "time": "매일 09:00~18:00",
        "lat": "37.2696421",
        "lng": "127.947133"
    },
    {
        "type": "3",
        "codes": ["KAWJ"],
        "name": "치악산 자연휴양림",
        "description": "자연이 아름다운 곳",
        "image": "/images/maintenence_near/near_place_3-20.jpg",
        "content": "맑은 물, 맑은 공기, 4계절이 절경인 휴양림으로 암반수를 식수로 할 만큼 깨끗함을 자랑하는 청정지역입니다. 넓은 주차시설과 휴게소를 비롯해 편리하고 쾌적한 부대시설을 고루 갖추고 있어요.",
        "tel": "033-762-8288",
        "addr": "강원 원주시 판부면 금대리 산100",
        "time": "매일 09:00~18:00",
        "lat": "37.2559139",
        "lng": "128.029063"
    },
    {
        "type": "3",
        "codes": ["KAWJ"],
        "name": "행구 수변공원",
        "description": "나들이 가기 좋은 공원",
        "image": "/images/maintenence_near/near_place_3-21.jpg",
        "content": "여러 휴식시설과 어우러져 있는 공원입니다. 맑은 공기를 마시며 통기타 연주부터 시낭송, 난타에 오케스트라까지 명품 공연을 무료로 즐길 수 있어요.",
        "tel": "033-742-2111",
        "addr": "강원 원주시 행구로 362",
        "time": "",
        "lat": "37.3425007",
        "lng": "127.9740092"
    },
    {
        "type": "3",
        "codes": ["KAWJ"],
        "name": "원주 레일파크",
        "description": "레일바이크를 타며 즐기는 절경",
        "image": "/images/maintenence_near/near_place_3-22.jpg",
        "content": "구 간현역에서 판대역을 오가는 레일 바이크를 타며 바라보는 색다른 풍경과 함께 잊지 못할 추억과 낭만을 만들어 보세요.",
        "tel": "033-733-6600",
        "addr": "강원 원주시 지정면 간현리 870",
        "time": "매일 10:10~15:20",
        "lat": "37.3632858",
        "lng": "127.834681"
    },
    {
        "type": "3",
        "codes": ["KAWJ"],
        "name": "박경리 문학공원",
        "description": "소설 「토지」를 주제로 꾸민 공원",
        "image": "/images/maintenence_near/near_place_3-23.jpg",
        "content": "한국문단의 기념비적인 작품으로 칭송받고 있는 박경리 선생님의 대하소설 「토지」를 주제로 선생님의 문학세계를 탐방할 수 있는 테마공원 이랍니다.",
        "tel": "033-762-6843",
        "addr": "강원 원주시 토지길 1",
        "time": "매일 10:00~17:00",
        "lat": "37.3227281",
        "lng": "127.9575525"
    },
    {
        "type": "3",
        "codes": ["KAWJ"],
        "name": "원주역사박물관",
        "description": "원주의 역사와 문화가 담긴",
        "image": "/images/maintenence_near/near_place_3-24.jpg",
        "content": "유서 깊은 원주의 역사와 전통문화유산을 수집·보존하고 종합적으로 연구·전시하여 원주가 어떻게 변화, 발전하여 왔는지 엿볼 수 있는 박물관입니다.",
        "tel": "033-737-4371",
        "addr": "강원 원주시 봉산로 134",
        "time": "매일 09:00~18:00",
        "lat": "37.3429736",
        "lng": "127.9643959"
    },
    {
        "type": "3",
        "codes": ["KAWJ"],
        "name": "간현관광지",
        "description": "기암절벽과 맑은 물",
        "image": "/images/maintenence_near/near_place_3-25.jpg",
        "content": "원주천과 삼산천이 합류하는 간현 협곡에 자리한 간현관광지는 주변에 간현캠핑장, 두몽폭포와 소금산 등이 밀집해있어 사랑받는 관광지예요.",
        "tel": "033-731-4088",
        "addr": "강원 원주시 지정면 소금산길 26",
        "time": "",
        "lat": "37.3650239",
        "lng": "127.8300959"
    },
    {
        "type": "3",
        "codes": ["CHUB"],
        "name": "수락산",
        "description": "아기자기한 암봉이 매력적인",
        "image": "/images/maintenence_near/near_place_3-26.jpg",
        "content": "금류, 은류, 옥류 폭포와 신라 때 지은 흥국사 등 명소가 산재해 있는 산. 암벽이 많이 노출되어 있으나 산세는 그리 험하지 않아 산악인들에게 사랑받는 산이에요.",
        "tel": "02-950-3900",
        "addr": "서울 노원구 상계동",
        "time": "",
        "lat": "37.6965092",
        "lng": "127.0734786"
    },
    {
        "type": "3",
        "codes": ["CHUB"],
        "name": "의정부 장암 아웃렛",
        "description": "다양한 브랜드를 만날 수 있는",
        "image": "/images/maintenence_near/near_place_3-27.jpg",
        "content": "네파, 캘러웨이, 블랙야크 등 여러 브랜드들이 모여 있는 아울렛 거리예요. 다양한 제품을 보다 저렴한 가격에 구매할 수 있어 추천해요.",
        "tel": "",
        "addr": "경기 의정부시 동일로",
        "time": "매일 11:00~21:00",
        "lat": "37.7264527",
        "lng": "127.0340324"
    },
    {
        "type": "3",
        "codes": ["HMIC"],
        "name": "송도GC",
        "description": "초보자에게도 편안한 퍼블릭 골프장",
        "image": "/images/maintenence_near/near_place_3-28.jpg",
        "content": "손으로 직접 중지를 심은 휼륭한 잔디로 조성되어 최상의 컨디션을 자랑합니다. 품격과 여유가 느껴지는 다양한 코스에서 라운딩을 즐길 수 있어요.",
        "tel": "032-833-0500",
        "addr": "인천 연수구 능허대로 236",
        "time": "",
        "lat": "37.4144594",
        "lng": "126.648927"
    },
    {
        "type": "3",
        "codes": ["HMIC"],
        "name": "카카오스크린",
        "description": "선명한 화질의 스크린 골프장",
        "image": "/images/maintenence_near/near_place_3-29.jpg",
        "content": "선명한 화질과 공스핀량을 읽는 스크린으로 즐겁게 플레이할 수 있는 곳. 단체석도 준비되어 여러명이 함께 방문하기에도 좋아요.",
        "tel": "032-262-5050",
        "addr": "인천 연수구 솔밭로 3",
        "time": "매일 10:00~02:00",
        "lat": "37.4144674",
        "lng": "126.6507387"
    },
    {
        "type": "3",
        "codes": ["HMIC"],
        "name": "CU 송도마들렌점",
        "description": "24시간 언제나 편리하게",
        "image": "/images/maintenence_near/near_place_3-30.jpg",
        "content": "볼보 인천 서비스 센터와 가까운 곳에 위치하고 있는 편의점입니다.",
        "tel": "",
        "addr": "인천 연수구 능허대로 265",
        "time": "",
        "lat": "37.413077",
        "lng": "126.6516741"
    },
    {
        "type": "3",
        "codes": ["IRHD"],
        "name": "신세계백화점 센텀시티점",
        "description": "세계 최대 백화점의 품격",
        "image": "/images/maintenence_near/near_place_3-31.jpg",
        "content": "기네스 월드 레코드에 오른 세계 최대 백화점으로 지하 2층 패션스트리트부터 11층 골프레인지까지 이용할 수 있습니다.",
        "tel": "1588-1234",
        "addr": "부산 해운대구 센텀남대로 35",
        "time": "월~목 11:00~20:00 / 금~일 11:00~20:30",
        "lat": "35.1687032",
        "lng": "129.1275579"
    },
    {
        "type": "3",
        "codes": ["IRHD"],
        "name": "롯데백화점 센텀시티점",
        "description": "편안하게 즐기는 쇼핑",
        "image": "/images/maintenence_near/near_place_3-32.jpg",
        "content": "신선한 제품이 가득한 식품관부터 각종 뷰티와 패션, 리빙까지 한 곳에서 편안하게 쇼핑을 즐길 수 있어요.",
        "tel": "1577-0001",
        "addr": "부산 해운대구 센텀남대로 59",
        "time": "월~목 10:30~20:00 / 금~일 10:30~20:30",
        "lat": "35.1696956",
        "lng": "129.1292257"
    }
    
]