[
	{
		"city": "서울",
		"keyword": [
			"서울특별시",
			"서울시"
		],
		"img": "01",
		"code": "HMGD",
		"name": "볼보 강남 대치 전시장", 
		"addr": "서울특별시 강남구 영동대로 424 사조빌딩 <span>(대치동 1001)</span>", 
		"phone": "02-569-6080",
		"fax": "02-569-6087",
		"site": "http://h.volvocars.co.kr",
		"time_1": "평일 9:00~21:00",
		"time_2": "주말/공휴일 9:00~20:00",
		"lat": "37.5075028899",
		"lng": "127.0644675316"
	},
	{
		"city": "서울",
		"keyword": [
			"서울특별시",
			"서울시"
		],
		"img": "02",
		"code": "HMGS",
		"name": "볼보 강남 신사 전시장",
		"addr": "서울특별시 강남구 도산대로 165 <span>(신사동 563-17)</span>",
		"phone": "02-515-9090",
		"fax": "02-515-9089",
		"site": "http://h.volvocars.co.kr",
		"time_1": "평일 9:00~21:00",
		"time_2": "주말/공휴일 9:00~20:00",
		"lat": "37.519482812",
		"lng": "127.0266372662"
	},
	{
		"city": "부산",
		"keyword": [
			"부산광역시",
			"부산시"
		],
		"img": "23",
		"code": "IRGA",
		"name": "볼보 광안 전시장", 
		"addr": "부산광역시 수영구 광남로 147 <span>(광안동 159-19)</span>", 
		"phone": "051-759-1600",
		"fax": "051-752-7200",
		"site": "http://iron.volvocars.co.kr",
		"time_1": "월~목 9:00~20:00",
		"time_2": "금~일/공휴일 9:00~20:30",
		"lat": "35.1545117568",
		"lng": "129.1173732056"
	},
	{
		"city": "광주",
		"keyword": [
			"광주광역시",
			"광주시"
		],
		"img": "22",
		"code": "IVGJ",
		"name": "볼보 광주 전시장", 
		"addr": "광주광역시 서구 상무대로 1096 <span>(농성동 649-16)</span>", 
		"phone": "062-372-3600",
		"fax": "062-372-3602",
		"site": "http://ivy.volvocars.co.kr",
		"time_1": "평일 9:00~20:00",
		"time_2": "주말/공휴일 9:00~20:00",
		"lat": "35.1526140",
		"lng": "126.8818750"
	},
	{
		"city": "대구",
		"keyword": [
			"대구광역시",
			"대구시"
		],
		"img": "21",
		"code": "TYDG",
		"name": "볼보 대구 전시장", 
		"addr": "대구광역시 수성구 청수로 71 <span>(중동 192-1)</span>", 
		"phone": "053-768-5588",
		"fax": "053-768-9517",
		"site": "http://ty.volvocars.co.kr",
		"time_1": "평일 9:00~20:00",
		"time_2": "주말/공휴일 9:00~20:00",
		"lat": "35.8408351661",
		"lng": "128.6160655408"
	},
	{
		"city": "대전",
		"keyword": [
			"대전광역시",
			"대전시"
		],
		"img": "20",
		"code": "HMDJ",
		"name": "볼보 대전 전시장", 
		"addr": "대전광역시 대덕구 한밭대로 1114 <span>(중리동 230-8)</span>", 
		"phone": "042-628-2200",
		"fax": "042-628-6084",
		"site": "http://h.volvocars.co.kr",
		"time_1": "평일 9:00~21:00",
		"time_2": "주말/공휴일 9:00~20:00",
		"lat": "36.3584840297",
		"lng": "127.4220865653"
	},
	{
		"city": "서울",
		"keyword": [
			"서울특별시",
			"서울시"
		],
		"img": "03",
		"code": "CHDM",
		"name": "볼보 동대문 전시장", 
		"addr": "서울특별시 동대문구 천호대로 373 <span>(장안동 414-6)</span>", 
		"phone": "02-2212-8855",
		"fax": "02-586-1670",
		"site": "http://ch.volvocars.co.kr",
		"time_1": "평일 9:00~20:00",
		"time_2": "주말/공휴일 9:00~20:00",
		"lat": "37.5624385",
		"lng": "127.0605121"
	},
	{
		"city": "서울",
		"keyword": [
			"서울특별시",
			"서울시"
		],
		"img": "04",
		"code": "AJMD",
		"name": "볼보 목동 전시장", 
		"addr": "서울특별시 양천구 신목로7길 1 <span>(신정동 296-31)</span>", 
		"phone": "02-2061-6789",
		"fax": "02-2061-5959",
		"site": "http://aju.volvocars.co.kr/",
		"time_1": "평일 9:00~20:30",
		"time_2": "주말/공휴일 9:00~20:00",
		"lat": "37.5196183347",
		"lng": "126.8720486122"
	},
	{
		"city": "경기도",
		"keyword": [
			"경기도",
			"경기"
		],
		"img": "08",
		"code": "HMBS",
		"name": "볼보 분당 서현 전시장", 
		"addr": "경기도 성남시 분당구 새마을로 51번길 1 <span>(서현동 136-14)</span>", 
		"phone": "031-707-2266",
		"fax": "031-707-9166",
		"site": "http://h.volvocars.co.kr",
		"time_1": "평일 9:00~21:00",
		"time_2": "주말/공휴일 9:00~20:00",
		"lat": "37.383650",
		"lng": "127.135850"
	},
	{
		"city" : "경기도",
		"keyword": [
			"경기도",
			"경기"
		],
		"img": "09",
		"code": "KABP",
		"name": "볼보 분당 판교 전시장", 
		"addr": "경기도 성남시 분당구 대왕판교로 372 <span>(백현동 472-99)</span>", 
		"phone": "031-706-5599",
		"fax": "031-706-7373",
		"site": "http://kolon.volvocars.co.kr/",
		"time_1": "평일 9:00~20:00",
		"time_2": "주말/공휴일 10:00~20:00",
		"lat": "37.376837",
		"lng": "127.102090"
	},
	{
		"city" : "경기도",
		"keyword": [
			"경기도",
			"경기"
		],
		"img": "",
		"code": "AJBC",
		"name": "볼보 부천 전시장", 
		"addr": "경기도 부천시 길주로 423 <span>(춘의동 116-21)</span>", 
		"phone": "032-716-6788",
		"fax": "032-716-6786",
		"site": "http://aju.volvocars.co.kr/",
		"time_1": "평일 9:00~20:00",
		"time_2": "주말/공휴일 9:00~20:00",
		"lat": "37.504540045579965",
		"lng": "126.78931118083997"
	},
	{
		"city": "서울",
		"keyword": [
			"서울특별시",
			"서울시"
		],
		"img": "05",
		"code": "KASC",
		"name": "볼보 서초 전시장", 
		"addr": "서울특별시 서초구 반포대로 66 <span>(서초동 1582-19)</span>", 
		"phone": "02-3486-2900",
		"fax": "02-3487-0900",
		"site": "http://kolon.volvocars.co.kr",
		"time_1": "평일 9:00~20:00",
		"time_2": "주말/공휴일 10:00~20:00",
		"lat": "37.4864050",
		"lng": "127.0106600"
	},
	{
		"city": "서울",
		"keyword": [
			"서울특별시",
			"서울시"
		],
		"img": "06",
		"code": "KASP",
		"name": "볼보 송파 전시장", 
		"addr": "서울특별시 송파구 위례성대로 124 <span>(방이동 183)</span>", 
		"phone": "02-413-0900",
		"fax": "02-413-0907",
		"site": "http://kolon.volvocars.co.kr",
		"time_1": "평일 9:00~20:00",
		"time_2": "주말/공휴일 10:00~20:00",
		"lat": "37.5123264289",
		"lng": "127.1255139001"
	},
	{
		"city": "경기도",
		"keyword": [
			"경기도",
			"경기"
		],
		"img": "10",
		"code": "HMSW",
		"name": "볼보 수원 전시장", 
		"addr": "경기도 용인시 기흥구 중부대로 16 <span>(영덕동 788-9)</span>", 
		"phone": "031-216-6777",
		"fax": "031-216-6464",
		"site": "http://h.volvocars.co.kr",
		"time_1": "평일 9:00~21:00",
		"time_2": "주말/공휴일 9:00~20:00",
		"lat": "37.267658",
		"lng": "127.070590"
	},
	{
		"city": "전라도",
		"keyword": [
			"전라남도",
			"전남"
		],
		"img": "17",
		"code": "IVSC",
		"name": "볼보 순천 전시장", 
		"addr": "전라남도 순천시 해룡면 상성길 174-5 <span>(상삼리 128)</span>", 
		"phone": "061-754-7200",
		"fax": "061-754-7201",
		"site": "http://ivy.volvocars.co.kr",
		"time_1": "평일 9:00~20:00",
		"time_2": "주말/공휴일 9:00~20:00",
		"lat": "34.935030",
		"lng": "127.541103"
	},
	{
		"city": "경기도",
		"keyword": [
			"경기도",
			"경기"
		],
		"img": "11",
		"code": "AJAY",
		"name": "볼보 안양 전시장", 
		"addr": "경기도 안양시 동안구 관악대로 265 <span>(비산동 1052)</span>", 
		"phone": "031-385-6789",
		"fax": "031-385-5535",
		"site": "http://aju.volvocars.co.kr",
		"time_1": "평일 9:00~20:30",
		"time_2": "주말/공휴일 9:00~20:00",
		"lat": "37.4025536534",
		"lng": "126.9522883551"
	},
	{
		"city": "울산",
		"keyword": [
			"울산광역시",
			"울산시"
		],
		"img": "25",
		"code": "KAUS",
		"name": "볼보 울산 전시장", 
		"addr": "울산광역시 남구 화합로 219 <span>(삼산동 1540-10)</span>", 
		"phone": "052-268-0900",
		"fax": "052-272-9990",
		"site": "http://kolon.volvocars.co.kr",
		"time_1": "평일 9:00~20:00",
		"time_2": "주말/공휴일 10:00~20:00",
		"lat": "35.5444130",
		"lng": "129.3392220"
	},
	{
		"city": "강원도",
		"keyword": [
			"강원도",
			"강원"
		],
		"img": "14",
		"code": "KAWJ",
		"name": "볼보 원주 전시장", 
		"addr": "강원도 원주시 봉화로 35-1 <span>(단계동 1117-2)</span>", 
		"phone": "033-735-2900",
		"fax": "033-735-5678",
		"site": "http://kolon.volvocars.co.kr",
		"time_1": "평일 9:00~20:00",
		"time_2": "주말/공휴일 10:00~20:00",
		"lat": "37.3475763744",
		"lng": "127.9283670149"
	},
	{
		"city": "경기도",
		"keyword": [
			"경기도",
			"의정부시"
		],
		"img": "26",
		"code": "CHUB",
		"name": "볼보 의정부 전시장", 
		"addr": "경기도 의정부시 동일로100 <span>(장암동 218-1)</span>", 
		"phone": "031-563-7000",
		"fax": "031-552-0067",
		"site": "http://ch.volvocars.co.kr/",
		"time_1": "평일 9:00~20:00",
		"time_2": "주말/공휴일 9:00~20:00",
		"lat": "37.698241",
		"lng": "127.054489"
	},
	{
		"city": "인천",
		"keyword": [
			"인천광역시",
			"인천시"
		],
		"img": "19",
		"code": "HMIC",
		"name": "볼보 인천 전시장", 
		"addr": "인천광역시 연수구 센트럴로 232 송도더샵 센트럴파크1 C동 <span>(송도동 23-3)</span>", 
		"phone": "032-858-0777",
		"fax": "032-858-0120",
		"site": "http://h.volvocars.co.kr",
		"time_1": "평일 9:00~21:00",
		"time_2": "주말/공휴일 9:00~20:00",
		"lat": "37.3967354317",
		"lng": "126.6376893944"
	},
	{
		"city": "경기도",
		"keyword": [
			"경기도",
			"경기"
		],
		"img": "12",
		"code": "AJIS",
		"name": "볼보 일산 전시장", 
		"addr": "경기도 고양시 일산동구 백마로 491 <span>(풍동 149-12)</span>", 
		"phone": "031-906-6789",
		"fax": "031-906-9797",
		"site": "http://aju.volvocars.co.kr",
		"time_1": "평일 9:00~20:30",
		"time_2": "주말/공휴일 9:00~20:00",
		"lat": "37.6627762518",
		"lng": "126.8023827347"
	},
	{
		"city": "전라도",
		"keyword": [
			"전라북도",
			"전북"
		],
		"img": "18",
		"code": "IVJJ",
		"name": "볼보 전주 전시장", 
		"addr": "전라북도 전주시 덕진구 기린대로 885 <span>(팔복동 2가 829-5)</span>", 
		"phone": "063-275-3600",
		"fax": "063-275-3602",
		"site": "http://ivy.volvocars.co.kr",
		"time_1": "평일 9:00~20:00",
		"time_2": "주말/공휴일 9:00~20:00",
		"lat": "35.8618484581",
		"lng": "127.0874218255"
	},
	{
		"city": "제주도",
		"keyword": [
			"제주"
		],
		"img": "27",
		"code": "IVJI",
		"name": "볼보 제주 전시장", 
		"addr": "제주특별자치도 제주시 연삼로 98 <span>(오라삼동 2748)</span>", 
		"phone": "064-712-3600",
		"fax": "064-712-3602",
		"site": "http://ivy.volvocars.co.kr",
		"time_1": "평일 9:00~20:00",
		"time_2": "주말/공휴일 9:00~20:00",
		"lat": "33.493100",
		"lng": "126.502925"
	},
	{
		"city": "경상도",
		"keyword": [
			"경상남도",
			"경남"
		],
		"img": "15",
		"code": "IRCW",
		"name": "볼보 창원 전시장", 
		"addr": "경상남도 창원시 마산합포구 서성로 11 <span>(신포동1가 15-8)</span>", 
		"phone": "055-714-8020",
		"fax": "055-714-8050",
		"site": "http://iron.volvocars.co.kr",
		"time_1": "월~목 9:00~20:00",
		"time_2": "금~일/공휴일 9:00~20:30",
		"lat": "35.1984928029",
		"lng": "128.5700799402"
	},
	{
		"city": "충청도",
		"keyword": [
			"충청남도",
			"충청"
		],
		"img": "13",
		"code": "KACA",
		"name": "볼보 천안 전시장", 
		"addr": "충청남도 천안시 서북구 동서대로 15 <span>(백석동 8-2)</span>", 
		"phone": "041-569-2900",
		"fax": "041-569-2901",
		"site": "http://kolon.volvocars.co.kr",
		"time_1": "평일 9:00~20:00",
		"time_2": "주말/공휴일 10:00~20:00",
		"lat": "36.8245470932",
		"lng": "127.1251258279"
	},
	{
		"city": "경상도",
		"keyword": [
			"경상북도",
			"경북"
		],
		"img": "16",
		"code": "TYPH",
		"name": "볼보 포항 전시장", 
		"addr": "경상북도 포항시 북구 새천년대로 519 <span>(득량동 292-1)</span>", 
		"phone": "054-278-7900",
		"fax": "054-278-1717",
		"site": "http://ty.volvocars.co.kr",
		"time_1": "평일 9:00~20:00",
		"time_2": "주말/공휴일 9:00~20:00",
		"lat": "36.021403",
		"lng": "129.349397"
	},
	{
		"city": "경기도",
		"keyword": [
			"하남시",
			"하남"
		],
		"img": "28",
		"code": "KAHN",
		"name": "볼보 하남 전시장", 
		"addr": "경기도 하남시 미사대로 750 스타필드 <span>(신장동 616)</span>", 
		"phone": "031-795-0211",
		"fax": "031-795-0231",
		"site": "http://kolon.volvocars.co.kr",
		"time_1": "평일 10:00~22:00",
		"time_2": "주말/공휴일 10:00~22:00",
		"lat": "37.545521",
		"lng": "127.223855"
	},
	{
		"city": "부산",
		"keyword": [
			"부산광역시",
			"부산시"
		],
		"img": "24",
		"code": "IRHD",
		"name": "볼보 해운대 전시장", 
		"addr": "부산광역시 해운대구 해운대로 269 <span>(재송동 81-25)</span>", 
		"phone": "051-714-7400",
		"fax": "051-714-7403",
		"site": "http://iron.volvocars.co.kr",
		"time_1": "월~목 9:00~20:00",
		"time_2": "금~일/공휴일 9:00~20:30",
		"lat": "35.1763579551",
		"lng": "129.1305965674"
	}
]